time,timestamp,recordtime,lat,long,alt,speed,course,verticalAccuracy,horizontalAccuracy,locTimeStamp,accelerationX,accelerationY,accelerationZ,HeadingX,HeadingY,HeadingZ,TrueHeading,MagneticHeading,HeadingAccuracy,RotationX,RotationY,RotationZ,motionYaw,motionRoll,motionPitch,motionRotationRateX,motionRotationRateY,motionRotationRateZ,motionUserAccelerationX,motionUserAccelerationY,motionUserAccelerationZ,en0,pdp_ip0,DeviceOrientation,Event
,,,,,,,,,,,,,,,,,,,,,,,,,,,,,,,,,,,
24:37.,1,0.05,40.4438,-79.94635,273.2583,-1,-1,10,65,1511130274,0.03555298,-0.02052307,-1.026138,17.87663,7.185638,-32.46045,288.5728,297.9046,10,-0.08796634,-0.03707733,0.03953436,-2.802512,0.04053613,0.03067913,-0.08230454,-0.03490943,-0.032407,0.005896015,-0.01739087,-0.01650467,128.237.254.209,0.0.0.0,5,3
,,,,,,,,,,,,,,,,,,,,,,,,,,,,,,,,,,,
24:37.,2,0.1,40.4438,-79.94635,273.2583,-1,-1,10,65,1511130274,0.02799988,-0.01965332,-1.016251,17.94646,7.185638,-32.32547,288.509,297.8408,10,-0.05708805,-0.01294376,-0.02686064,-2.801296,0.03892687,0.02835087,-0.02871772,-0.01705557,-0.022508,-0.000510287,0.007839261,-0.02632085,128.237.254.209,0.0.0.0,5,3
,,,,,,,,,,,,,,,,,,,,,,,,,,,,,,,,,,,
24:37.,3,0.15,40.4438,-79.94635,273.2583,-1,-1,10,65,1511130274,0.0423584,-0.03286743,-1.0271,18.121,7.777008,-32.08911,288.4702,297.802,10,-0.1139793,-0.07719119,-0.03777881,-2.800234,0.03725107,0.02791179,-0.04401629,-0.0572328,-0.0224169,0.01352279,0.002761685,-0.03317221,128.237.254.209,0.0.0.0,5,3
,,,,,,,,,,,,,,,,,,,,,,,,,,,,,,,,,,,
24:37.,4,0.2,40.4438,-79.94635,273.2583,-1,-1,10,65,1511130274,0.05157471,-0.01754761,-1.026215,17.98137,7.846558,-32.08911,288.4609,297.7927,10,-0.05931339,-0.07770838,-0.1232607,-2.800855,0.03379511,0.02573043,-0.05091877,-0.1011466,-0.01621714,0.005742775,-0.007139839,-0.03093112,128.237.254.209,0.0.0.0,5,3
,,,,,,,,,,,,,,,,,,,,,,,,,,,,,,,,,,,
24:37.,5,0.25,40.4438,-79.94635,273.2583,-1,-1,10,65,1511130274,0.02694702,-0.01487732,-1.03006,17.28316,7.637909,-32.35922,288.4744,297.8062,10,0.06669275,-0.05187785,0.05137584,-2.805062,0.03219052,0.0250895,0.08327507,-0.04490214,0.003644706,0.01245712,0.02937459,-0.02419384,128.237.254.209,0.0.0.0,5,3
,,,,,,,,,,,,,,,,,,,,,,,,,,,,,,,,,,,
24:37.,6,0.3,40.4438,-79.94635,273.2583,-1,-1,10,65,1511130274,0.01881409,-0.03877258,-1.022018,17.1086,7.394409,-32.12289,288.4507,297.7825,10,-0.04856754,-0.1265936,0.06554359,-2.802478,0.02908773,0.02818168,-0.07820175,-0.1216234,0.0912687,0.001735411,0.007624359,-0.03579307,128.237.254.209,0.0.0.0,5,3
,,,,,,,,,,,,,,,,,,,,,,,,,,,,,,,,,,,
24:37.,7,0.35,40.4438,-79.94635,273.2583,-1,-1,10,65,1511130274,-0.005142212,-0.01799011,-1.028915,17.4926,7.01178,-32.22415,288.405,297.7368,10,-0.02295858,-0.126853,-0.01769111,-2.799797,0.02083027,0.02659606,-0.0601674,-0.1401509,-0.007638162,0.001334361,-0.04642038,-0.03916,128.237.254.209,0.0.0.0,5,3
,,,,,,,,,,,,,,,,,,,,,,,,,,,,,,,,,,,
24:37.,8,0.4,40.4438,-79.94635,273.2583,-1,-1,10,65,1511130274,-0.0297699,-0.01062012,-0.9963531,17.14351,7.29007,-32.76434,288.3418,297.6736,10,0.07388861,-0.006790794,-0.07325717,-2.802121,0.01842098,0.03100064,0.1536173,0.01429225,-0.08805714,-0.02160017,0.01109821,-0.01577152,128.237.254.209,0.0.0.0,5,3
,,,,,,,,,,,,,,,,,,,,,,,,,,,,,,,,,,,
24:37.,9,0.45,40.4438,-79.94635,273.2583,-1,-1,10,65,1511130274,0.002532959,-0.02177429,-0.9934845,16.72458,7.08139,-32.49426,288.3186,297.6504,10,-0.07767455,-0.08363871,-0.08466935,-2.805799,0.0145982,0.03285579,-0.04414769,-0.07069694,-0.08278327,-0.01083614,-0.007967383,-0.001912677,128.237.254.209,0.0.0.0,5,3
,,,,,,,,,,,,,,,,,,,,,,,,,,,,,,,,,,,
24:37.,10,0.5,40.4438,-79.94635,273.2583,-1,-1,10,65,1511130274,-0.00213623,-0.02656555,-1.014114,16.61986,7.11618,-32.39297,288.3061,297.6379,10,-0.08383898,-0.02249173,-0.05597645,-2.808097,0.01074715,0.03161056,-0.02304924,-0.04033471,-0.05500212,-0.02581726,-0.01411004,-0.01352726,128.237.254.209,0.0.0.0,5,3
,,,,,,,,,,,,,,,,,,,,,,,,,,,,,,,,,,,
24:37.,11,0.55,40.4438,-79.94635,273.2583,-1,-1,10,65,1511130274,0.02696228,-0.02151489,-1.078293,17.31808,7.672699,-31.92035,287.9814,297.3133,10,-0.2166026,-0.1361778,-0.1251206,-2.810241,0.006529645,0.02740285,-0.1539584,-0.1211367,-0.05918734,-0.01635381,0.006494884,-0.02731325,128.237.254.209,0.0.0.0,5,3
,,,,,,,,,,,,,,,,,,,,,,,,,,,,,,,,,,,
24:38.,12,0.6,40.4438,-79.94635,273.2583,-1,-1,10,65,1511130274,0.03465271,0.03094482,-1.097336,17.21335,7.985779,-32.49426,288.1192,297.451,10,-0.01571292,-0.187987,0.01042042,-2.814022,-4.10E-05,0.02200953,-0.05741478,-0.1964931,-0.02203393,0.01751229,0.001393124,-0.09031484,128.237.254.209,0.0.0.0,5,3
,,,,,,,,,,,,,,,,,,,,,,,,,,,,,,,,,,,
24:38.,13,0.65,40.4438,-79.94635,273.2583,-1,-1,10,65,1511130274,-0.04907227,0.005462646,-1.071198,16.41039,7.742279,-32.7981,288.0231,297.3549,10,0.07905673,0.0029119,-0.1349032,-2.813784,-0.006678744,0.02336239,0.1301324,-0.0185921,-0.08337487,-0.001074593,0.04630949,-0.08063271,128.237.254.209,0.0.0.0,5,3
,,,,,,,,,,,,,,,,,,,,,,,,,,,,,,,,,,,
24:38.,14,0.7,40.4438,-79.94635,273.2583,-1,-1,10,65,1511130274,-0.02981567,-0.02101135,-1.101685,15.92165,7.46402,-32.8656,287.9297,297.2615,10,0.01124573,0.1683485,-0.3402726,-2.817918,-0.006331012,0.02720381,0.06248436,0.1078014,-0.1568447,-0.01114269,0.006280653,-0.07947633,128.237.254.209,0.0.0.0,5,3
,,,,,,,,,,,,,,,,,,,,,,,,,,,,,,,,,,,
24:38.,15,0.75,40.4438,-79.94635,273.2583,-1,-1,10,65,1511130274,0.1131897,-0.05683899,-1.283356,16.27075,7.881439,-32.39297,288.9984,298.3303,10,-0.1762941,0.1395616,-0.1007468,-2.838727,0.004970067,0.02575479,-0.1107166,0.2094363,-0.3383708,-0.01313185,0.001185294,-0.1868216,128.237.254.209,0.0.0.0,5,3
,,,,,,,,,,,,,,,,,,,,,,,,,,,,,,,,,,,
24:38.,16,0.8,40.4438,-79.94635,273.2583,-1,-1,10,65,1511130274,0.04151917,-0.006011963,-1.261642,16.20093,8.437988,-32.59549,290.4212,299.7531,10,-0.2192807,0.1851893,0.01843706,-2.837001,0.01024755,0.01981572,-0.164936,0.09161407,0.1561094,0.1821985,-0.02303225,-0.2692613,128.237.254.209,0.0.0.0,5,3
,,,,,,,,,,,,,,,,,,,,,,,,,,,,,,,,,,,
24:38.,17,0.85,40.4438,-79.94635,273.2583,-1,-1,10,65,1511130274,0.03689575,0.05200195,-1.24321,16.37549,8.681458,-32.15665,290.5533,299.8852,10,0.06043618,0.7593202,0.01627618,-2.836295,0.0255285,0.0128692,-0.009303548,0.5469767,0.02068057,-0.02447075,-0.005853692,-0.2647519,128.237.254.209,0.0.0.0,5,3
,,,,,,,,,,,,,,,,,,,,,,,,,,,,,,,,,,,
24:38.,18,0.9,40.4438,-79.94635,273.2583,-1,-1,10,65,1511130274,0.146347,0.01759338,-1.143066,17.45772,8.577118,-31.78531,290.9792,300.311,10,0.612792,-0.163962,0.6750013,-2.829346,0.06847005,0.03389799,0.567596,0.1254841,0.479105,-0.04609942,0.06190664,-0.1641864,128.237.254.209,0.0.0.0,5,3
,,,,,,,,,,,,,,,,,,,,,,,,,,,,,,,,,,,
24:38.,19,0.95,40.4438,-79.94635,273.2583,-1,-1,10,65,1511130274,0.1192322,0.02102661,-0.9341583,17.91158,7.707581,-31.8866,290.6176,299.9495,10,0.399994,0.1873654,0.8317055,-2.796613,0.0606235,0.06685644,0.6333055,-0.05693823,0.9334846,0.2052197,0.08719239,-0.02553611,128.237.254.209,0.0.0.0,5,3
,,,,,,,,,,,,,,,,,,,,,,,,,,,,,,,,,,,
24:38.,20,1,40.4438,-79.94635,273.2583,-1,-1,10,65,1511130274,-0.02719116,-0.05726624,-1.002029,18.53995,5.898865,-31.68399,287.8997,297.2315,10,0.4156097,0.4815815,0.6890836,-2.762635,0.06851516,0.08992315,0.4938543,0.5293113,0.6568365,-0.04587661,0.08429359,0.08664045,128.237.254.209,0.0.0.0,5,3
,,,,,,,,,,,,,,,,,,,,,,,,,,,,,,,,,,,
24:38.,21,1.05,40.4438,-79.94635,273.2583,-1,-1,10,65,1511130274,0.01469421,-0.05418396,-0.821991,18.67957,4.368408,-31.34637,286.0444,295.3763,10,-0.3170832,-0.04703808,0.6183157,-2.716676,0.07285502,0.1069829,-0.1322682,-0.2090054,0.9453384,0.1705913,0.07835181,0.06705414,128.237.254.209,0.0.0.0,5,3
,,,,,,,,,,,,,,,,,,,,,,,,,,,,,,,,,,,
24:38.,22,1.1,40.4438,-79.94635,273.2583,-1,-1,10,65,1511130274,0.03311157,0.04496765,-0.7812347,18.88901,3.811859,-31.8866,283.3736,292.7054,10,-0.650283,-0.4852407,0.2558044,-2.685464,0.06077825,0.09244306,-0.4613858,-0.531306,0.2910875,-0.1033282,0.0881458,0.1433362,128.237.254.209,0.0.0.0,5,3
,,,,,,,,,,,,,,,,,,,,,,,,,,,,,,,,,,,
24:38.,23,1.15,40.4438,-79.94635,273.2583,-1,-1,10,65,1511130274,0.1064301,-0.04870605,-0.7731628,18.74937,4.020569,-32.35919,283.0783,292.4101,10,-0.4747846,-0.5037367,0.6557043,-2.669519,0.02548672,0.06968201,-0.4312178,-1.012785,0.5592901,0.1948385,0.04952981,0.1426502,128.237.254.209,0.0.0.0,5,3
,,,,,,,,,,,,,,,,,,,,,,,,,,,,,,,,,,,
24:38.,24,1.2,40.4438,-79.94635,273.2583,-1,-1,10,65,1511130274,-0.01716614,0.07394409,-0.6383362,17.63225,4.437958,-32.76434,280.9791,290.3109,10,-1.192994,-0.06735614,0.7039512,-2.633238,-0.00467302,0.04267833,-0.8016413,-0.3595564,0.6871352,0.04899553,0.1000689,0.2571352,128.237.254.209,0.0.0.0,5,3
,,,,,,,,,,,,,,,,,,,,,,,,,,,,,,,,,,,
24:38.,25,1.25,40.4438,-79.94635,273.2583,-1,-1,10,65,1511130274,-0.1400452,-0.02113342,-0.8756256,16.61983,4.820587,-32.79816,279.6006,288.9325,10,-0.6217222,-0.3696018,-0.1542221,-2.607291,-0.008923551,-0.00955,-0.9597968,-0.3094155,0.3790377,-0.05072358,-0.03666472,0.0796265,128.237.254.209,0.0.0.0,5,3
,,,,,,,,,,,,,,,,,,,,,,,,,,,,,,,,,,,
24:38.,26,1.3,40.4438,-79.94635,273.2583,-1,-1,10,65,1511130274,0.03208923,-0.02352905,-0.8813171,16.02635,4.855377,-33.10205,275.2972,284.6291,10,-0.7320257,-0.9427702,-0.1075755,-2.61479,-0.04217247,-0.04121818,-0.6110944,-0.9467416,-0.1792222,0.006998423,-0.06526962,0.07391535,128.237.254.209,0.0.0.0,5,3
,,,,,,,,,,,,,,,,,,,,,,,,,,,,,,,,,,,
24:38.,27,1.35,40.4438,-79.94635,273.2583,-1,-1,10,65,1511130274,0.07748413,-0.1639862,-1.00882,14.90921,6.107605,-33.77722,275.8894,285.2213,10,0.3034155,-1.422207,0.002108425,-2.622452,-0.09398975,-0.06202023,-0.1618364,-1.518785,-0.2211722,-0.1145504,-0.02648854,0.01857441,128.237.254.209,0.0.0.0,5,3
,,,,,,,,,,,,,,,,,,,,,,,,,,,,,,,,,,,
24:38.,28,1.4,40.4438,-79.94635,273.2583,-1,-1,10,65,1511130274,-0.2128448,-0.03213501,-0.9727631,13.5826,5.968506,-34.38492,274.5042,283.836,10,0.9088072,0.2458958,-0.4163714,-2.621008,-0.141945,-0.035514,0.8485963,0.1727836,-0.2059781,0.0822671,-0.03784113,0.05609095,128.237.254.209,0.0.0.0,5,3
,,,,,,,,,,,,,,,,,,,,,,,,,,,,,,,,,,,
24:38.,29,1.45,40.4438,-79.94635,273.2583,-1,-1,10,65,1511130274,-0.3040009,-0.1707153,-1.303543,12.39561,5.411926,-34.31741,276.5193,285.8511,10,-0.2652974,-0.3716226,-0.3829599,-2.639277,-0.1378603,0.008482208,0.8304565,0.0591635,-0.634582,-0.0102097,-0.08029353,0.0502301,128.237.254.209,0.0.0.0,5,3
,,,,,,,,,,,,,,,,,,,,,,,,,,,,,,,,,,,
24:38.,30,1.5,40.4438,-79.94635,273.2583,-1,-1,10,65,1511130274,-0.07794189,-0.01766968,-1.024658,11.83705,5.133667,-34.45245,279.1304,288.4622,10,-0.8202193,0.03637132,-0.5040317,-2.662525,-0.1431078,0.000503143,-0.680366,0.09828531,-0.359548,0.008891821,-0.1423802,-0.03594891,128.237.254.209,0.0.0.0,5,3
,,,,,,,,,,,,,,,,,,,,,,,,,,,,,,,,,,,
24:38.,31,1.55,40.4438,-79.94635,273.2583,-1,-1,10,65,1511130274,-0.2870331,-0.0174408,-1.080856,11.52286,6.490234,-34.14859,280.6756,290.0074,10,-0.7171192,0.01948901,-0.7293413,-2.698189,-0.139216,-0.02640617,-0.6097417,0.3502397,-1.032318,0.09761118,-0.04186026,-0.03090944,128.237.254.209,0.0.0.0,5,3
,,,,,,,,,,,,,,,,,,,,,,,,,,,,,,,,,,,
24:39.,32,1.6,40.4438,-79.94635,273.2583,-1,-1,10,65,1511130274,-0.2060394,0.07365417,-1.021606,11.13885,7.916351,-34.04733,283.2047,292.5366,10,-0.5373101,-0.5863924,0.3064627,-2.722779,-0.1543619,-0.05756145,-0.5603098,-0.8297348,0.3509303,-0.1061639,-0.07187293,-0.1033704,128.237.254.209,0.0.0.0,5,3
,,,,,,,,,,,,,,,,,,,,,,,,,,,,,,,,,,,
24:39.,33,1.65,40.4438,-79.94635,273.2583,-1,-1,10,65,1511130274,-0.2629395,0.08744812,-0.9908905,10.96431,8.78598,-34.28366,282.4883,291.8202,10,-0.1430847,0.8256859,-0.4371747,-2.725417,-0.1487793,-0.07217728,-0.07658716,0.7684614,-0.3893972,-0.07716097,0.0127395,0.04162994,128.237.254.209,0.0.0.0,5,3
,,,,,,,,,,,,,,,,,,,,,,,,,,,,,,,,,,,
24:39.,34,1.7,40.4438,-79.94635,273.2583,-1,-1,10,65,1511130274,-0.1422577,0.1122437,-0.9807281,11.10394,8.92511,-34.48621,283.3987,292.7306,10,-0.3444794,0.1226505,-0.2865452,-2.743807,-0.119717,-0.07510044,-0.1876654,0.4078587,-0.3509604,-0.08970665,0.05573796,-0.02890748,128.237.254.209,0.0.0.0,5,3
,,,,,,,,,,,,,,,,,,,,,,,,,,,,,,,,,,,
24:39.,35,1.75,40.4438,-79.94635,273.2583,-1,-1,10,65,1511130274,-0.1840057,0.118576,-1.000275,11.55779,9.307678,-34.31744,284.3563,293.6881,10,-0.1044015,0.5896415,-0.2594521,-2.759524,-0.1052671,-0.08495809,-0.06252555,0.5106439,-0.2153455,-0.03017859,-0.03250302,-0.07133236,128.237.254.209,0.0.0.0,5,3
,,,,,,,,,,,,,,,,,,,,,,,,,,,,,,,,,,,
24:39.,36,1.8,40.4438,-79.94635,273.2583,-1,-1,10,65,1511130274,0.002151489,0.1886749,-0.9975586,12.64001,9.759857,-33.87854,284.5243,293.8561,10,-0.1680883,0.7061401,-0.5588388,-2.775464,-0.07587566,-0.08667738,-0.09007823,0.8711459,-0.5180354,-0.1376012,0.08316988,0.0126666,128.237.254.209,0.0.0.0,5,3
,,,,,,,,,,,,,,,,,,,,,,,,,,,,,,,,,,,
24:39.,37,1.85,40.4438,-79.94635,273.2583,-1,-1,10,65,1511130274,0.2084656,0.1789398,-0.9885712,13.75716,10.66428,-32.86575,286.2925,295.6244,10,-0.2967449,0.9344697,-0.6331207,-2.796262,-0.03483911,-0.09592869,-0.2701444,0.7286894,-0.2586202,0.12035,0.1869637,-0.0774978,128.237.254.209,0.0.0.0,5,3
,,,,,,,,,,,,,,,,,,,,,,,,,,,,,,,,,,,
24:39.,38,1.9,40.4438,-79.94635,273.2583,-1,-1,10,65,1511130274,-0.0349884,0.0665741,-1.133636,15.18849,11.04684,-31.88669,287.1093,296.4411,10,-0.1665802,0.5155017,-0.6896977,-2.817301,-0.008737266,-0.1054533,-0.3591398,0.6425624,-0.7095119,0.1084964,0.1289645,0.00800258,128.237.254.209,0.0.0.0,5,3
,,,,,,,,,,,,,,,,,,,,,,,,,,,,,,,,,,,
24:39.,39,1.95,40.4438,-79.94635,273.2583,-1,-1,10,65,1511130274,0.1775818,0.02731323,-1.034912,16.41037,12.26431,-31.24527,289.2069,298.5387,10,0.2016199,0.562462,-0.3626885,-2.855629,0.02753814,-0.1051962,0.2713678,0.7311807,-0.3847909,-0.01569421,-0.05238994,-0.05793754,128.237.254.209,0.0.0.0,5,3
,,,,,,,,,,,,,,,,,,,,,,,,,,,,,,,,,,,
24:39.,40,2,40.4438,-79.94635,273.2583,-1,-1,10,65,1511130274,0.1043243,0.00378418,-0.9595947,17.00386,12.36871,-30.8739,290.6168,299.9486,10,-0.03813593,0.1920304,-0.2548642,-2.871262,0.05088176,-0.09969161,-0.02894326,0.2916371,-0.3144711,0.08406679,-0.03267781,0.0858797,128.237.254.209,0.0.0.0,5,3
,,,,,,,,,,,,,,,,,,,,,,,,,,,,,,,,,,,
24:39.,41,2.05,40.4438,-79.94635,273.2583,-1,-1,10,65,1511130274,0.1473541,0.06434631,-1.22998,17.66716,11.98605,-30.70514,290.6022,299.934,10,-0.4110472,0.1403976,-0.1468289,-2.883153,0.05206649,-0.1088798,-0.5664514,-0.3876594,-0.1671105,0.06447615,-0.1210855,0.1828863,128.237.254.209,0.0.0.0,5,3
,,,,,,,,,,,,,,,,,,,,,,,,,,,,,,,,,,,
24:39.,42,2.1,40.4438,-79.94635,273.2583,-1,-1,10,65,1511130274,0.1382599,0.1297913,-1.00769,18.05116,12.15994,-29.92862,290.2703,299.6021,10,-0.0512797,-0.03991786,-0.1451364,-2.88974,0.05282566,-0.125529,-0.3274255,0.0206908,-0.1687636,0.02088707,0.04600403,-0.0395411,128.237.254.209,0.0.0.0,5,3
,,,,,,,,,,,,,,,,,,,,,,,,,,,,,,,,,,,
24:39.,43,2.15,40.4438,-79.94635,273.2583,-1,-1,10,65,1511130274,0.1248322,0.01637268,-1.022781,17.94646,12.33389,-29.21964,289.8617,299.1935,10,-0.01744956,-0.1454035,-0.46592,-2.896223,0.04933831,-0.123981,0.1622745,-0.0691302,-0.1123412,0.090785,-0.0300204,-0.03708159,128.237.254.209,0.0.0.0,5,3
,,,,,,,,,,,,,,,,,,,,,,,,,,,,,,,,,,,
24:39.,44,2.2,40.4438,-79.94635,273.2583,-1,-1,10,65,1511130274,0.04003906,-0.002426147,-1.008514,17.4926,12.78607,-29.86108,292.0915,301.4233,10,0.08775036,-0.05459906,-0.1805165,-2.921529,0.04192757,-0.1285485,-0.02990097,-0.03460021,-0.4979085,0.1470902,-0.1304073,0.07132177,128.237.254.209,0.0.0.0,5,3
,,,,,,,,,,,,,,,,,,,,,,,,,,,,,,,,,,,
24:39.,45,2.25,40.4438,-79.94635,273.2583,-1,-1,10,65,1511130274,0.07107544,0.06735229,-1.028732,17.4926,13.20349,-30.33371,293.3478,302.6796,10,-0.1611457,-0.1415313,-0.06676731,-2.928689,0.03718966,-0.1295985,-0.1899641,-0.1111568,0.03565092,0.02450157,-0.03724074,0.01627306,128.237.254.209,0.0.0.0,5,3
,,,,,,,,,,,,,,,,,,,,,,,,,,,,,,,,,,,
24:39.,46,2.3,40.4438,-79.94635,273.2583,-1,-1,10,65,1511130274,0.007446289,0.0887146,-1.003952,17.70206,13.8992,-30.73883,294.0084,303.3402,10,0.1304139,-0.04399702,-0.2189872,-2.939988,0.02735891,-0.1329523,-0.01261267,-0.2020977,-0.4535506,0.1343697,-0.0397112,-0.03847769,128.237.254.209,0.0.0.0,5,3
,,,,,,,,,,,,,,,,,,,,,,,,,,,,,,,,,,,
24:39.,47,2.35,40.4438,-79.94635,273.2583,-1,-1,10,65,1511130274,0.09542847,0.09321594,-0.9452667,17.80678,13.79486,-30.36749,294.0996,303.4314,10,0.2682099,-0.0915451,0.01284576,-2.949892,0.02200849,-0.1198692,0.4062203,-0.09079858,-0.02502465,0.0438708,-0.06753457,0.001388174,128.237.254.209,0.0.0.0,5,3
,,,,,,,,,,,,,,,,,,,,,,,,,,,,,,,,,,,
24:39.,48,2.4,40.4438,-79.94635,273.2583,-1,-1,10,65,1511130274,0.051651,-0.0213623,-1.019302,17.59732,13.37747,-31.11023,294.5079,303.8398,10,-0.0913624,0.007036604,0.3051812,-2.950679,0.0148595,-0.1155633,-0.01193365,-0.08333032,0.242001,-0.009754966,-0.1198686,-0.0584917,128.237.254.209,0.0.0.0,5,3
,,,,,,,,,,,,,,,,,,,,,,,,,,,,,,,,,,,
24:39.,49,2.45,40.4438,-79.94635,273.2583,-1,-1,10,65,1511130274,0.1615753,0.3815155,-1.14801,18.57481,12.82095,-31.85297,291.9365,301.2683,10,-0.06599047,-0.1151133,0.9016556,-2.93024,0.01233316,-0.1183976,-0.05539335,-0.2917134,0.5701809,0.07320271,-0.05827625,-0.000377728,128.237.254.209,0.0.0.0,5,3
,,,,,,,,,,,,,,,,,,,,,,,,,,,,,,,,,,,
24:39.,50,2.5,40.4438,-79.94635,273.2583,-1,-1,10,65,1511130274,0.117569,-0.06272888,-0.9947662,18.71445,12.54266,-31.98801,290.9958,300.3276,10,-0.0176477,0.04664234,0.1652486,-2.904449,0.01231874,-0.119464,-0.08725338,0.01645163,0.658039,-0.009972326,0.001883216,0.001525356,128.237.254.209,0.0.0.0,5,3
,,,,,,,,,,,,,,,,,,,,,,,,,,,,,,,,,,,
24:39.,51,2.55,40.4438,-79.94635,273.2583,-1,-1,10,65,1511130274,0.1545105,0.04620361,-1.093018,19.37773,11.88174,-31.27908,288.6596,297.9914,10,0.3338225,-0.3621992,-0.2284603,-2.887835,0.01163098,-0.1188038,-0.08685972,-0.169516,0.0448489,-0.03385708,-0.06147193,-0.01273127,128.237.254.209,0.0.0.0,5,3
,,,,,,,,,,,,,,,,,,,,,,,,,,,,,,,,,,,
24:40.,52,2.6,40.4438,-79.94635,273.2583,-1,-1,10,65,1511130274,0.02604675,0.1514435,-0.6399231,18.88898,11.67307,-31.00897,288.5189,297.8507,10,0.03490845,-0.1788022,-0.3446181,-2.901713,-0.006978987,-0.0820995,0.5898353,-0.2184048,-0.3292508,-0.01878615,0.01500808,0.002619421,128.237.254.209,0.0.0.0,5,3
,,,,,,,,,,,,,,,,,,,,,,,,,,,,,,,,,,,
24:40.,53,2.65,40.4438,-79.94635,273.2583,-1,-1,10,65,1511130274,0.05613708,-0.001342773,-0.9889069,18.29552,11.08176,-31.58289,290.0001,299.3319,10,0.83193,0.02914537,-0.3699229,-2.917349,-0.01339996,-0.0610269,0.8294516,-0.0397461,-0.3854593,0.08457213,0.03512608,-0.2494945,128.237.254.209,0.0.0.0,5,3
,,,,,,,,,,,,,,,,,,,,,,,,,,,,,,,,,,,
24:40.,54,2.7,40.4438,-79.94635,273.2583,-1,-1,10,65,1511130274,0.05064392,-0.1938019,-0.944519,17.63222,10.49039,-32.29187,292.076,301.4078,10,0.5036168,0.1297279,-0.496756,-2.938075,-0.01236457,-0.01526367,0.6892077,0.09096361,-0.4400343,0.07071242,-0.1613355,0.009694776,128.237.254.209,0.0.0.0,5,3
,,,,,,,,,,,,,,,,,,,,,,,,,,,,,,,,,,,
24:40.,55,2.75,40.4438,-79.94635,273.2583,-1,-1,10,65,1511130274,0.1005859,-0.068573,-1.026169,16.79436,9.586029,-32.2243,293.6931,303.025,10,0.7365635,-0.06299788,-0.7313975,-2.963898,-0.008921997,0.008735611,0.6701151,0.01040334,-0.7056478,0.02941409,-0.1357652,0.01292253,128.237.254.209,0.0.0.0,5,3
,,,,,,,,,,,,,,,,,,,,,,,,,,,,,,,,,,,
24:40.,56,2.8,40.4438,-79.94635,273.2583,-1,-1,10,65,1511130274,0.05290222,-0.2279968,-1.026108,16.86418,9.377319,-32.2243,295.882,305.2138,10,0.8536952,-0.1922579,-0.6153311,-3.002306,-0.01528718,0.05418021,0.9441223,-0.1495746,-0.6211607,0.1202599,-0.1800687,-0.03872396,128.237.254.209,0.0.0.0,5,3
,,,,,,,,,,,,,,,,,,,,,,,,,,,,,,,,,,,
24:40.,57,2.85,40.4438,-79.94635,273.2583,-1,-1,10,65,1511130274,0.07420349,-0.108017,-0.7874908,16.44524,8.612091,-33.37222,297.6666,306.9984,10,0.8640205,-0.7374261,-1.204976,-3.032837,-0.02398658,0.08662524,0.5528256,-0.3844351,-0.8846194,0.03767304,-0.1123203,0.009284717,128.237.254.209,0.0.0.0,5,3
,,,,,,,,,,,,,,,,,,,,,,,,,,,,,,,,,,,
24:40.,58,2.9,40.4438,-79.94635,273.2583,-1,-1,10,65,1511130274,-0.04197693,-0.2536163,-0.9103088,16.34052,8.299042,-34.08121,298.4129,307.7447,10,0.003353186,-0.1554325,-0.6470253,-3.083955,-0.04712632,0.1240306,0.4320999,-0.2720982,-0.6272125,0.2057588,-0.242437,-0.0434974,128.237.254.209,0.0.0.0,5,3
,,,,,,,,,,,,,,,,,,,,,,,,,,,,,,,,,,,
24:40.,59,2.95,40.4438,-79.94635,273.2583,-1,-1,10,65,1511130274,0.03138733,-0.1224518,-1.058075,15.43283,8.507751,-34.6889,300.3186,309.6504,10,-0.3738559,-0.007758054,-0.173742,-3.108402,-0.0487447,0.1151043,-0.3964751,-0.07654525,-0.3827523,0.08615322,-0.1618984,0.05508436,128.237.254.209,0.0.0.0,5,3
,,,,,,,,,,,,,,,,,,,,,,,,,,,,,,,,,,,
24:40.,60,3,40.4438,-79.94635,273.2583,-1,-1,10,65,1511130274,-0.07598877,-0.1414795,-0.9846191,15.43283,9.06424,-34.41882,300.8204,310.1522,10,-0.2850698,0.01834811,-0.1334635,-3.115521,-0.04308498,0.09961334,-0.2201723,0.06495299,-0.06090859,-0.03097915,-0.005760668,-0.071463,128.237.254.209,0.0.0.0,5,3
,,,,,,,,,,,,,,,,,,,,,,,,,,,,,,,,,,,
24:40.,61,3.05,40.4438,-79.94635,273.2583,-1,-1,10,65,1511130274,-0.04272461,-0.01934814,-0.9125214,15.0488,9.516479,-34.45261,301.6301,310.9619,10,-0.5194195,0.224391,-0.2348461,-3.122559,-0.03884686,0.08780388,-0.3679457,0.1737133,-0.1843124,-0.04171108,-0.008134097,0.04207281,128.237.254.209,0.0.0.0,5,3
,,,,,,,,,,,,,,,,,,,,,,,,,,,,,,,,,,,
24:40.,62,3.1,40.4438,-79.94635,273.2583,-1,-1,10,65,1511130274,-0.03482056,0.01217651,-0.9797058,15.18845,9.586029,-34.25003,301.0785,310.4103,10,-0.1241678,-0.00266902,-0.2569066,-3.136428,-0.02901688,0.0659494,-0.237242,0.03448265,-0.2638955,0.04098892,0.09849438,-0.03482048,128.237.254.209,0.0.0.0,5,3
,,,,,,,,,,,,,,,,,,,,,,,,,,,,,,,,,,,
24:40.,63,3.15,40.4438,-79.94635,273.2583,-1,-1,10,65,1511130274,-0.1315308,-0.09431458,-0.9816437,14.76952,9.933899,-34.38504,301.549,310.8808,10,-0.197814,0.127448,-0.3219685,3.133367,-0.02646641,0.06438123,-0.07406685,0.08189781,-0.2812866,-0.08699483,0.01968954,0.01361574,128.237.254.209,0.0.0.0,5,3
,,,,,,,,,,,,,,,,,,,,,,,,,,,,,,,,,,,
24:40.,64,3.2,40.4438,-79.94635,273.2583,-1,-1,10,65,1511130274,0.04872131,-0.02038574,-1.065582,14.52513,10.59476,-34.28375,302.7531,312.0849,10,-0.2754454,-0.06363597,-0.2611379,3.114628,-0.01818486,0.0544856,-0.2147284,0.0635731,-0.3376123,0.004988543,-0.000732395,-0.06874196,128.237.254.209,0.0.0.0,5,3
,,,,,,,,,,,,,,,,,,,,,,,,,,,,,,,,,,,
24:40.,65,3.25,40.4438,-79.94635,273.2583,-1,-1,10,65,1511130274,0.009597778,0.01445007,-0.9749908,14.69969,11.74258,-34.25003,303.9583,313.2902,10,-0.2185819,-0.05555381,-0.1762501,3.101857,-0.0206287,0.04308451,-0.1946545,-0.06969257,-0.166502,0.0474483,0.03770008,-0.01057049,128.237.254.209,0.0.0.0,5,3
,,,,,,,,,,,,,,,,,,,,,,,,,,,,,,,,,,,
24:40.,66,3.3,40.4438,-79.94635,273.2583,-1,-1,10,65,1511130274,0.03442383,-0.05586243,-0.902832,14.35059,12.16,-34.38507,304.5119,313.8437,10,0.006648848,-0.1247606,-0.2423048,3.093498,-0.02366896,0.03867776,-0.02805081,-0.1005051,-0.2173599,0.03573401,0.01692434,0.06257086,128.237.254.209,0.0.0.0,5,3
,,,,,,,,,,,,,,,,,,,,,,,,,,,,,,,,,,,
24:40.,67,3.35,40.4438,-79.94635,273.2583,-1,-1,10,65,1511130274,-0.001083374,-0.0847168,-0.9172821,13.61745,12.68176,-34.21628,306.0028,315.3346,10,0.001330515,-0.08316866,-0.2171443,3.081251,-0.02946149,0.04176567,0.06386079,-0.10498,-0.2107634,0.06892128,-0.03504396,0.112708,128.237.254.209,0.0.0.0,5,3
,,,,,,,,,,,,,,,,,,,,,,,,,,,,,,,,,,,
24:40.,68,3.4,40.4438,-79.94635,273.2583,-1,-1,10,65,1511130274,-0.005249023,-0.1266174,-0.9633484,13.65236,12.64697,-34.45258,306.1207,315.4525,10,-0.01129154,-0.04640718,-0.2149661,3.074422,-0.03103122,0.04404635,0.08370209,-0.01720041,-0.2146677,-0.03481501,-0.01549243,0.06368893,128.237.254.209,0.0.0.0,5,3
,,,,,,,,,,,,,,,,,,,,,,,,,,,,,,,,,,,
24:40.,69,3.45,40.4438,-79.94635,273.2583,-1,-1,10,65,1511130274,0.0406189,-0.1004944,-0.9893036,13.58253,12.64697,-34.52005,306.957,316.2888,10,-0.2517641,-0.2727112,-0.1815101,3.061407,-0.02922684,0.05802067,-0.1887781,-0.2749662,-0.1764245,0.05695976,-0.06740861,0.01765105,128.237.254.209,0.0.0.0,5,3
,,,,,,,,,,,,,,,,,,,,,,,,,,,,,,,,,,,
24:40.,70,3.5,40.4438,-79.94635,273.2583,-1,-1,10,65,1511130274,-0.007736206,-0.09609985,-1.035385,13.4429,12.64697,-34.85764,306.6801,316.0119,10,0.1316915,-0.07690197,0.008360994,3.054983,-0.03292649,0.05291941,0.004308493,-0.1055853,-0.07576037,0.06323944,0.00183881,-0.02395961,128.237.254.209,0.0.0.0,5,3
,,,,,,,,,,,,,,,,,,,,,,,,,,,,,,,,,,,
24:40.,71,3.55,40.4438,-79.94635,273.2583,-1,-1,10,65,1511130274,-0.1160126,-0.1959991,-1.092484,13.54762,12.5426,-35.02649,306.4228,315.7546,10,0.1110554,-0.08651492,-0.04851374,3.056747,-0.03576564,0.06563917,0.2162783,-0.09401598,0.03165612,-0.04992079,-0.08250976,-0.1360619,128.237.254.209,0.0.0.0,5,3
,,,,,,,,,,,,,,,,,,,,,,,,,,,,,,,,,,,
24:41.,72,3.6,40.4438,-79.94635,273.2583,-1,-1,10,65,1511130274,-0.09326172,-0.2175903,-1.252029,13.33817,12.47305,-35.43158,306.9693,316.3011,10,1.23E-05,0.133174,0.04532354,3.058479,-0.03693268,0.07039758,0.05551353,0.05402487,0.09410582,-0.1101551,-0.1458929,-0.1466203,128.237.254.209,0.0.0.0,5,3
,,,,,,,,,,,,,,,,,,,,,,,,,,,,,,,,,,,
24:41.,73,3.65,40.4438,-79.94635,273.2583,-1,-1,10,65,1511130274,-0.1200562,-0.1207581,-1.127335,12.95415,12.50784,-34.79013,307.9148,317.2466,10,-0.3075962,0.3581486,-0.1580815,3.05916,-0.02608011,0.07407617,-0.07030597,0.3531349,-0.1025331,-0.1001083,-0.1486936,-0.1574394,128.237.254.209,0.0.0.0,5,3
,,,,,,,,,,,,,,,,,,,,,,,,,,,,,,,,,,,
24:41.,74,3.7,40.4438,-79.94635,273.2583,-1,-1,10,65,1511130274,0.03375244,0.1547089,-1.075317,13.26834,12.61218,-34.55383,308.2835,317.6153,10,-0.3196454,-0.008191617,-0.05861991,3.051829,-0.01435864,0.06248251,-0.2875018,0.1302541,-0.1608015,-0.01200654,0.05200485,-0.1944218,128.237.254.209,0.0.0.0,5,3
,,,,,,,,,,,,,,,,,,,,,,,,,,,,,,,,,,,
24:41.,75,3.75,40.4438,-79.94635,273.2583,-1,-1,10,65,1511130274,-0.08459473,0.1070251,-1.02626,14.03638,12.4035,-34.41879,306.0617,315.3935,10,0.3548068,0.01644955,0.1047083,3.051466,-0.01588565,0.0535823,0.1608057,-0.07640273,0.08201016,0.01284094,0.2613051,-0.08092214,128.237.254.209,0.0.0.0,5,3
,,,,,,,,,,,,,,,,,,,,,,,,,,,,,,,,,,,
24:41.,76,3.8,40.4438,-79.94635,273.2583,-1,-1,10,65,1511130274,-0.0778656,-0.1873169,-0.8464661,14.52512,12.19476,-34.41879,304.9962,314.3281,10,0.4900011,0.3621473,-0.0156972,3.052756,-0.01023928,0.07969857,0.7403914,0.2616624,-0.1324562,-0.07978974,0.00364071,0.1330192,128.237.254.209,0.0.0.0,5,3
,,,,,,,,,,,,,,,,,,,,,,,,,,,,,,,,,,,
24:41.,77,3.85,40.4438,-79.94635,273.2583,-1,-1,10,65,1511130274,0.03161621,-0.1206512,-0.9113464,14.7695,11.67303,-34.52005,306.2356,315.5674,10,-0.3475372,0.1948933,0.06598727,3.053073,0.006829915,0.09615424,-0.2146049,0.2335343,0.05910035,0.01872964,-0.1170981,0.1180229,128.237.254.209,0.0.0.0,5,3
,,,,,,,,,,,,,,,,,,,,,,,,,,,,,,,,,,,
24:41.,78,3.9,40.4438,-79.94635,273.2583,-1,-1,10,65,1511130274,0.11026,0.0447998,-1.000214,14.7695,11.67303,-34.8577,306.8473,316.1791,10,-0.3877541,0.2051018,0.2675231,3.062223,0.0163977,0.07273447,-0.4770029,0.210278,0.2546609,0.08105849,0.09638251,0.03854273,128.237.254.209,0.0.0.0,5,3
,,,,,,,,,,,,,,,,,,,,,,,,,,,,,,,,,,,
24:41.,79,3.95,40.4438,-79.94635,273.2583,-1,-1,10,65,1511130274,-0.004257202,-0.1001587,-0.7073975,14.59496,11.49908,-34.55386,305.9833,315.3151,10,0.05014439,-0.1091971,-0.07293519,3.076838,0.01979888,0.06076672,0.112891,-0.2274185,0.1875467,-0.003922425,0.04565364,0.1018863,128.237.254.209,0.0.0.0,5,3
,,,,,,,,,,,,,,,,,,,,,,,,,,,,,,,,,,,
24:41.,80,4,40.4438,-79.94635,273.2583,-1,-1,10,65,1511130274,0.0206604,-0.13414,-0.8107452,14.66476,11.98608,-33.74362,305.9844,315.3162,10,-0.3306717,-0.2427687,-0.3694167,3.076141,0.01658938,0.0639797,-0.03280341,0.02905698,-0.1443655,-0.03440746,-0.07916086,0.2503344,128.237.254.209,0.0.0.0,5,3
,,,,,,,,,,,,,,,,,,,,,,,,,,,,,,,,,,,
24:41.,81,4.05,40.4438,-79.94635,273.2583,-1,-1,10,65,1511130274,0.09666443,0.02268982,-0.8542786,14.35057,12.57742,-33.77737,306.6906,316.0224,10,-0.1752139,-0.1682407,0.03961638,3.051221,-0.000833433,0.03956557,-0.3782251,-0.2586808,-0.2610949,0.3189327,-0.07967693,0.07673169,128.237.254.209,0.0.0.0,5,3
,,,,,,,,,,,,,,,,,,,,,,,,,,,,,,,,,,,
24:41.,82,4.1,40.4438,-79.94635,273.2583,-1,-1,10,65,1511130274,0.1147614,0.1068268,-1.116791,13.79199,13.13397,-34.58765,306.9164,316.2482,10,-0.1399912,-0.1501874,0.1412519,3.054806,-0.008982627,0.0305165,-0.123824,-0.1386075,0.1434751,0.06587835,0.1653537,0.008878238,128.237.254.209,0.0.0.0,5,3
,,,,,,,,,,,,,,,,,,,,,,,,,,,,,,,,,,,
24:41.,83,4.15,40.4438,-79.94635,273.2583,-1,-1,10,65,1511130274,0.006576538,-0.05400085,-1.132217,12.91924,13.58615,-34.21628,308.3641,317.6959,10,0.447692,-0.1162662,0.2061478,3.062907,-0.01605664,0.03414767,0.313986,-0.1534429,0.2210118,0.06493574,0.1204447,-0.1190742,128.237.254.209,0.0.0.0,5,3
,,,,,,,,,,,,,,,,,,,,,,,,,,,,,,,,,,,
24:41.,84,4.2,40.4438,-79.94635,273.2583,-1,-1,10,65,1511130274,0.0256958,-0.06719971,-1.123352,13.33817,12.75134,-34.95898,306.6496,315.9814,10,0.02128398,0.06832659,0.2632639,3.075916,-0.01876293,0.05688728,0.2566851,0.0852975,0.2667368,0.02378213,-0.07720712,-0.08530473,128.237.254.209,0.0.0.0,5,3
,,,,,,,,,,,,,,,,,,,,,,,,,,,,,,,,,,,
24:41.,85,4.25,40.4438,-79.94635,273.2583,-1,-1,10,65,1511130274,-0.0827179,0.0749054,-1.317657,13.7571,12.12524,-34.95898,305.5832,314.915,10,0.06770102,0.009221462,0.1199906,3.08817,-0.01905476,0.05633165,-0.05970303,-0.06338786,0.2607316,0.001353702,0.03829649,-0.1675389,128.237.254.209,0.0.0.0,5,3
,,,,,,,,,,,,,,,,,,,,,,,,,,,,,,,,,,,
24:41.,86,4.3,40.4438,-79.94635,273.2583,-1,-1,10,65,1511130274,-0.003463745,0.00668335,-0.9374695,14.03638,11.98608,-35.36411,304.7189,314.0508,10,0.02721298,0.2819449,-0.0216523,3.092002,-0.0165325,0.07017662,0.4749217,0.1919701,-0.04184335,-0.02130496,-0.05376707,-0.1578711,128.237.254.209,0.0.0.0,5,3
,,,,,,,,,,,,,,,,,,,,,,,,,,,,,,,,,,,
24:41.,87,4.35,40.4438,-79.94635,273.2583,-1,-1,10,65,1511130274,-0.217865,0.1526794,-1.137207,14.03638,11.22083,-35.29666,304.8055,314.1373,10,0.3920618,-0.002218147,0.06996284,3.094947,-0.005238651,0.06486566,-0.2683586,0.1558619,0.1509793,-0.04163213,0.1949014,0.1092114,128.237.254.209,0.0.0.0,5,3
,,,,,,,,,,,,,,,,,,,,,,,,,,,,,,,,,,,
24:41.,88,4.4,40.4438,-79.94635,273.2583,-1,-1,10,65,1511130274,-0.1665497,-0.2623291,-0.840744,14.28076,10.69907,-35.93811,302.6245,311.9563,10,0.563445,0.2269522,-0.4364213,3.092096,-0.002302417,0.09281278,0.81025,0.1534557,-0.3502997,-0.2125207,-0.05378952,0.06589904,128.237.254.209,0.0.0.0,5,3
,,,,,,,,,,,,,,,,,,,,,,,,,,,,,,,,,,,
24:41.,89,4.45,40.4438,-79.94635,273.2583,-1,-1,10,65,1511130274,-0.005340576,-0.1303711,-1.047043,14.1411,10.35123,-36.34323,303.2729,312.6047,10,-0.6779452,0.09383328,-0.2968133,3.071838,0.01083428,0.1024887,-0.2554949,0.2458932,-0.4922588,-0.0849807,-0.149659,0.05794192,128.237.254.209,0.0.0.0,5,3
,,,,,,,,,,,,,,,,,,,,,,,,,,,,,,,,,,,
24:41.,90,4.5,40.4438,-79.94635,273.2583,-1,-1,10,65,1511130274,0.07148743,0.2150574,-1.126038,14.21092,10.76868,-36.41074,303.986,313.3178,10,-0.7412749,0.01500212,-0.260573,3.055501,0.01794811,0.06690793,-0.7674912,0.08803134,-0.273375,0.05478588,0.205713,-0.105395,128.237.254.209,0.0.0.0,5,3
,,,,,,,,,,,,,,,,,,,,,,,,,,,,,,,,,,,
24:41.,91,4.55,40.4438,-79.94635,273.2583,-1,-1,10,65,1511130274,0.009536743,0.03622437,-0.8155518,14.17601,11.9165,-35.9043,304.3337,313.6655,10,0.2414006,-0.2173113,-0.4314638,3.04547,0.01601893,0.04827133,-0.02897274,-0.1664883,-0.2751904,0.02654192,0.3087354,-0.06834011,128.237.254.209,0.0.0.0,5,3
,,,,,,,,,,,,,,,,,,,,,,,,,,,,,,,,,,,
24:42.,92,4.6,40.4438,-79.94635,273.2583,-1,-1,10,65,1511130274,-0.05030823,-0.06333923,-0.7664948,13.8269,12.4035,-35.56671,304.5934,313.9252,10,0.1526292,0.1671411,-0.2330996,3.02753,0.009861253,0.06351053,0.3520364,0.07200787,-0.202844,-0.1535485,-0.01018633,0.2604933,128.237.254.209,0.0.0.0,5,3
,,,,,,,,,,,,,,,,,,,,,,,,,,,,,,,,,,,
24:42.,93,4.65,40.4438,-79.94635,273.2583,-1,-1,10,65,1511130274,-0.09091187,0.009536743,-0.6445618,13.23343,12.43826,-36.2757,306.6051,315.937,10,-0.764829,-0.4857438,-0.4868629,3.007672,0.004902569,0.04553424,-0.843136,-0.4794742,-0.4671362,-0.08633363,0.04660188,0.300221,128.237.254.209,0.0.0.0,5,3
,,,,,,,,,,,,,,,,,,,,,,,,,,,,,,,,,,,
24:42.,94,4.7,40.4438,-79.94635,273.2583,-1,-1,10,65,1511130274,0.04391479,-0.1852875,-0.9238586,12.4305,13.65567,-36.30942,307.7089,317.0407,10,-0.05052469,-0.357678,-0.4772438,2.983274,-0.01622935,0.02710231,-0.1784232,-0.4414662,-0.7003049,-0.04182176,-0.1019141,0.1053666,128.237.254.209,0.0.0.0,5,3
,,,,,,,,,,,,,,,,,,,,,,,,,,,,,,,,,,,
24:42.,95,4.75,40.4438,-79.94635,273.2583,-1,-1,10,65,1511130274,0.1490021,-0.1443329,-1.036819,11.38318,14.62964,-36.30942,309.2762,318.608,10,0.146501,0.1171668,-0.08668509,2.965413,-0.03112829,0.02836275,0.1391175,-0.03111781,-0.07431168,0.1668224,-0.1741862,-0.03439475,128.237.254.209,0.0.0.0,5,3
,,,,,,,,,,,,,,,,,,,,,,,,,,,,,,,,,,,
24:42.,96,4.8,40.4438,-79.94635,273.2583,-1,-1,10,65,1511130274,-0.08242798,-0.1099701,-1.147263,11.20862,14.87314,-36.74838,310.4822,319.814,10,0.1478768,0.006011554,-0.0257541,2.962447,-0.02477616,0.03793535,0.2349105,0.1060858,-0.05503555,-0.04860846,-0.04152626,-0.1081123,128.237.254.209,0.0.0.0,5,3
,,,,,,,,,,,,,,,,,,,,,,,,,,,,,,,,,,,
24:42.,97,4.85,40.4438,-79.94635,273.2583,-1,-1,10,65,1511130274,-0.003585815,-0.02824402,-1.310562,11.55772,13.76004,-36.4783,309.3628,318.6946,10,0.838495,0.09518511,-0.04147607,2.962885,-0.02526668,0.05778617,0.8129887,0.01793251,0.01639482,-0.04527379,-0.02832082,-0.1445202,128.237.254.209,0.0.0.0,5,3
,,,,,,,,,,,,,,,,,,,,,,,,,,,,,,,,,,,
24:42.,98,4.9,40.4438,-79.94635,273.2583,-1,-1,10,65,1511130274,-0.006378174,-0.07884216,-1.176331,11.48793,13.2731,-36.54581,310.0158,319.3476,10,-0.1603513,-0.1561742,-0.006273076,2.963405,-0.02232759,0.07561579,0.04057662,0.01988086,0.02881467,0.04612668,0.02099358,-0.4998102,128.237.254.209,0.0.0.0,5,3
,,,,,,,,,,,,,,,,,,,,,,,,,,,,,,,,,,,
24:42.,99,4.95,40.4438,-79.94635,273.2583,-1,-1,10,65,1511130274,0.1514587,0.1852112,-1.083893,11.7672,12.36874,-37.1535,308.2396,317.5714,10,0.5684879,0.0463169,0.09131446,2.965213,-0.01415696,0.06317884,0.5349471,-0.01002779,0.1067403,0.1710954,0.2054708,-0.01683512,128.237.254.209,0.0.0.0,5,3
,,,,,,,,,,,,,,,,,,,,,,,,,,,,,,,,,,,
24:42.,100,5,40.4438,-79.94635,273.2583,-1,-1,10,65,1511130274,0.003341675,-0.006576538,-0.9472656,12.08139,11.63831,-37.18726,308.2089,317.5407,10,0.2042839,0.005597432,0.1884754,2.972015,-0.01193502,0.08550763,0.403271,0.0815788,0.2143261,-0.04354404,0.190857,-0.1354994,128.237.254.209,0.0.0.0,5,3
,,,,,,,,,,,,,,,,,,,,,,,,,,,,,,,,,,,
24:42.,101,5.05,40.4438,-79.94635,273.2583,-1,-1,10,65,1511130274,0.01768494,-0.08073425,-0.9568024,11.80209,11.15131,-37.5249,308.3304,317.6622,10,-0.3491149,-0.1214239,0.2390022,2.981655,-0.01390468,0.09332914,-0.1652964,-0.09054692,0.1682892,0.02020664,0.07521886,0.06211059,128.237.254.209,0.0.0.0,5,3
,,,,,,,,,,,,,,,,,,,,,,,,,,,,,,,,,,,
24:42.,102,5.1,40.4438,-79.94635,273.2583,-1,-1,10,65,1511130274,0.1064301,-0.01992798,-1.045181,11.83702,11.39478,-37.55865,308.1749,317.5067,10,-0.2361028,-0.2652703,0.4469546,2.993826,-0.01883029,0.0683695,-0.3654885,-0.2145022,0.368285,0.1403367,-0.06203959,0.05724026,128.237.254.209,0.0.0.0,5,3
,,,,,,,,,,,,,,,,,,,,,,,,,,,,,,,,,,,
24:42.,103,5.15,40.4438,-79.94635,273.2583,-1,-1,10,65,1511130274,-0.04576111,0.1111145,-0.9693298,11.31337,11.7774,-37.93002,308.4126,317.7444,10,0.1131471,-0.1816561,0.364016,3.017771,-0.03425188,0.06194996,0.1024915,-0.2381676,0.4146163,0.06199627,0.1784265,-0.01751835,128.237.254.209,0.0.0.0,5,3
,,,,,,,,,,,,,,,,,,,,,,,,,,,,,,,,,,,
24:42.,104,5.2,40.4438,-79.94635,273.2583,-1,-1,10,65,1511130274,-0.09474182,-0.005584717,-0.802063,11.20862,11.67307,-38.63898,307.757,317.0888,10,0.1216801,-0.07553045,0.1629817,3.031544,-0.04131605,0.0688979,0.1843388,-0.09481343,0.2295516,-0.04000098,0.09675173,0.1176715,128.237.254.209,0.0.0.0,5,3
,,,,,,,,,,,,,,,,,,,,,,,,,,,,,,,,,,,
24:42.,105,5.25,40.4438,-79.94635,273.2583,-1,-1,10,65,1511130274,-0.0116272,-0.07054138,-0.8749542,10.92932,10.76871,-38.63901,306.2632,315.5951,10,0.0409437,-0.1102139,0.2375937,3.042009,-0.04592324,0.07731712,0.1384302,-0.09197212,0.209936,0.000893856,0.02542126,0.1830952,128.237.254.209,0.0.0.0,5,3
,,,,,,,,,,,,,,,,,,,,,,,,,,,,,,,,,,,
24:42.,106,5.3,40.4438,-79.94635,273.2583,-1,-1,10,65,1511130274,0.05143738,-0.0557251,-0.9058533,10.89441,10.59479,-38.40268,305.9716,315.3035,10,0.09537925,-0.1008835,0.3357548,3.054768,-0.05224627,0.07988953,0.06366493,-0.1254686,0.3304993,0.0843588,-0.01422008,0.1568578,128.237.254.209,0.0.0.0,5,3
,,,,,,,,,,,,,,,,,,,,,,,,,,,,,,,,,,,
24:42.,107,5.35,40.4438,-79.94635,273.2583,-1,-1,10,65,1511130274,0.007507324,-0.099823,-0.996048,11.06895,9.725189,-38.50397,303.6354,312.9672,10,0.104466,-0.06675187,0.3525727,3.074664,-0.05916999,0.08666928,0.1613559,-0.0762281,0.3755596,0.09284906,0.05549392,0.02555474,128.237.254.209,0.0.0.0,5,3
,,,,,,,,,,,,,,,,,,,,,,,,,,,,,,,,,,,
24:42.,108,5.4,40.4438,-79.94635,273.2583,-1,-1,10,65,1511130274,-0.02786255,-0.09237671,-1.153519,11.80208,9.620819,-38.67279,302.6576,311.9894,10,-0.02196602,-0.03265701,0.3347663,3.094965,-0.06165167,0.09272799,0.07040674,-0.09008583,0.3255461,-0.02138523,0.01207453,-0.06890149,128.237.254.209,0.0.0.0,5,3
,,,,,,,,,,,,,,,,,,,,,,,,,,,,,,,,,,,
24:42.,109,5.45,40.4438,-79.94635,273.2583,-1,-1,10,65,1511130274,-0.1021729,-0.1329041,-1.279037,12.08138,9.41214,-38.60522,301.5099,310.8417,10,-0.2794364,0.1723853,0.2767589,3.107938,-0.05747712,0.09386491,0.1056162,0.3444483,0.1957009,0.04039267,-0.03858182,-0.1397132,128.237.254.209,0.0.0.0,5,3
,,,,,,,,,,,,,,,,,,,,,,,,,,,,,,,,,,,
24:42.,110,5.5,40.4438,-79.94635,273.2583,-1,-1,10,65,1511130274,0.01997375,-0.05209351,-1.024918,12.29082,9.342529,-38.67273,301.382,310.7138,10,-0.2261719,-0.1162904,0.522477,3.116805,-0.0515026,0.08832029,-0.3652102,0.1251473,0.4296017,-0.1165675,-0.09178717,-0.3959961,128.237.254.209,0.0.0.0,5,3
,,,,,,,,,,,,,,,,,,,,,,,,,,,,,,,,,,,
24:42.,111,5.55,40.4438,-79.94635,273.2583,-1,-1,10,65,1511130274,-0.3634796,0.1439362,-1.209412,12.43047,8.994659,-38.67273,299.3386,308.6704,10,0.3381506,0.1519629,-0.4857329,3.1386,-0.06038191,0.09736311,0.5045785,-0.04279771,-0.1277342,-0.04537881,0.3259996,-0.07770158,128.237.254.209,0.0.0.0,5,3
,,,,,,,,,,,,,,,,,,,,,,,,,,,,,,,,,,,
24:43.,112,5.6,40.4438,-79.94635,273.2583,-1,-1,10,65,1511130274,-0.2088013,-0.1073608,-0.9388733,11.83701,8.75116,-38.50394,301.0997,310.4315,10,-0.2758148,0.2087023,-0.4786803,3.112898,-0.04788593,0.112248,-0.08581714,0.2395052,-0.5639462,-0.3274641,0.04806289,0.01579158,128.237.254.209,0.0.0.0,5,3
,,,,,,,,,,,,,,,,,,,,,,,,,,,,,,,,,,,
24:43.,113,5.65,40.4438,-79.94635,273.2583,-1,-1,10,65,1511130274,-0.02601624,-0.1372223,-1.035095,11.66245,9.412079,-38.94281,302.4973,311.8291,10,-0.4929631,-0.02010367,-0.0752841,3.097831,-0.0403916,0.09581975,-0.5626171,0.04475728,-0.1597953,-0.03515251,-0.09052981,-0.0183538,128.237.254.209,0.0.0.0,5,3
,,,,,,,,,,,,,,,,,,,,,,,,,,,,,,,,,,,
24:43.,114,5.7,40.4438,-79.94635,273.2583,-1,-1,10,65,1511130274,0.006500244,0.1525116,-0.9993439,11.4879,9.655579,-39.11163,302.8536,312.1855,10,0.06156909,-0.03238404,-0.1940614,3.09249,-0.04162786,0.07838037,-0.02229904,-0.06018115,-0.1283885,0.04551639,0.0765759,-0.04874889,128.237.254.209,0.0.0.0,5,3
,,,,,,,,,,,,,,,,,,,,,,,,,,,,,,,,,,,
24:43.,115,5.75,40.4438,-79.94635,273.2583,-1,-1,10,65,1511130274,0.02124023,-0.1008759,-0.7242584,11.27843,10.55994,-38.70648,304.3699,313.7017,10,0.249498,0.04045688,-0.2355931,3.083003,-0.04096919,0.08753699,0.2931571,0.02248841,-0.2659009,0.03611645,0.1244888,0.1621137,128.237.254.209,0.0.0.0,5,3
,,,,,,,,,,,,,,,,,,,,,,,,,,,,,,,,,,,
24:43.,116,5.8,40.4438,-79.94635,273.2583,-1,-1,10,65,1511130274,0.01452637,-0.1580658,-0.7406769,11.17366,10.31644,-39.14539,305.532,314.8638,10,0.1491056,0.05849047,-0.126286,3.072538,-0.03732265,0.1032076,0.2355691,0.06458123,-0.1443688,0.03162227,-0.03810406,0.3035412,128.237.254.209,0.0.0.0,5,3
,,,,,,,,,,,,,,,,,,,,,,,,,,,,,,,,,,,
24:43.,117,5.85,40.4438,-79.94635,273.2583,-1,-1,10,65,1511130274,-0.05789185,-0.1995087,-0.8829346,11.73222,10.17731,-39.21289,305.3671,314.6989,10,-0.2026141,0.03107696,-0.08349383,3.069455,-0.03452882,0.1085014,-0.01183681,0.05581888,-0.03096245,0.03158763,-0.1022521,0.1931424,128.237.254.209,0.0.0.0,5,3
,,,,,,,,,,,,,,,,,,,,,,,,,,,,,,,,,,,
24:43.,118,5.9,40.4438,-79.94635,273.2583,-1,-1,10,65,1511130274,-0.05033875,-0.1030579,-1.12085,11.76714,9.794678,-39.31421,304.9673,314.2991,10,-0.2784415,-0.07331416,-0.08950804,3.064476,-0.03400989,0.09928722,-0.2416386,-0.06923068,-0.1151217,-0.03253986,-0.05274656,5.38E-05,128.237.254.209,0.0.0.0,5,3
,,,,,,,,,,,,,,,,,,,,,,,,,,,,,,,,,,,
24:43.,119,5.95,40.4438,-79.94635,273.2583,-1,-1,10,65,1511130274,-0.09126282,-0.1566772,-1.196228,11.59258,10.17728,-38.67276,305.2964,314.6283,10,0.01409984,0.1037096,-0.007635016,3.062801,-0.03451964,0.09273045,-0.02024403,0.06446158,0.01124629,-0.02958508,0.007560374,-0.1799537,128.237.254.209,0.0.0.0,5,3
,,,,,,,,,,,,,,,,,,,,,,,,,,,,,,,,,,,
24:43.,120,6,40.4438,-79.94635,273.2583,-1,-1,10,65,1511130274,-0.07907104,-0.1499023,-1.19632,11.90678,10.76859,-38.90909,305.91,315.2418,10,-0.02267176,0.02343076,0.0505183,3.063238,-0.02979004,0.09518089,0.02772078,0.04082866,0.01646488,-0.03248297,-0.04996703,-0.199426,128.237.254.209,0.0.0.0,5,3
,,,,,,,,,,,,,,,,,,,,,,,,,,,,,,,,,,,
24:43.,121,6.05,40.4438,-79.94635,273.2583,-1,-1,10,65,1511130274,-0.05517578,-0.1077881,-1.225204,12.04645,11.32513,-39.11163,307.064,316.3958,10,0.2080672,0.500249,0.007421697,3.066726,-0.02887596,0.09861694,0.1546208,0.03851568,0.09455507,-0.01266543,-0.04161851,-0.2008149,128.237.254.209,0.0.0.0,5,3
,,,,,,,,,,,,,,,,,,,,,,,,,,,,,,,,,,,
24:43.,122,6.1,40.4438,-79.94635,273.2583,-1,-1,10,65,1511130274,-0.1300659,-0.216568,-1.729568,11.76718,10.55988,-39.44922,307.8864,317.2182,10,-0.1700625,-0.158535,-0.01477841,3.069113,-0.0118321,0.1138718,0.006064332,0.1131004,0.02930694,-0.06517962,0.05243809,-0.3658446,128.237.254.209,0.0.0.0,5,3
,,,,,,,,,,,,,,,,,,,,,,,,,,,,,,,,,,,
24:43.,123,6.15,40.4438,-79.94635,273.2583,-1,-1,10,65,1511130274,0.186554,0.1216583,-1.038391,11.34824,10.07294,-39.38171,307.9635,317.2953,10,0.3419254,0.06040103,-0.2508554,3.062463,-0.02754688,0.1202595,0.3693562,-0.1039979,-0.2298454,0.1765144,0.2774864,-0.01844812,128.237.254.209,0.0.0.0,5,3
,,,,,,,,,,,,,,,,,,,,,,,,,,,,,,,,,,,
24:43.,124,6.2,40.4438,-79.94635,273.2583,-1,-1,10,65,1511130274,0.08361816,-0.06872559,-1.007385,11.48788,9.098999,-39.51675,306.3289,315.6608,10,0.2819851,0.1147591,-0.05688326,3.054366,-0.01930534,0.1359624,0.4600932,0.223863,-0.1208201,0.03005129,0.1129304,-0.07678083,128.237.254.209,0.0.0.0,5,3
,,,,,,,,,,,,,,,,,,,,,,,,,,,,,,,,,,,
24:43.,125,6.25,40.4438,-79.94635,273.2583,-1,-1,10,65,1511130274,0.09069824,-0.1487427,-0.9055328,11.76717,8.75116,-39.44925,307.3054,316.6372,10,-0.4844378,-0.2338373,0.2411375,3.055092,-0.01575296,0.1390457,-0.277879,-0.1567429,0.1666311,0.08493622,0.07547244,-0.01317687,128.237.254.209,0.0.0.0,5,3
,,,,,,,,,,,,,,,,,,,,,,,,,,,,,,,,,,,
24:43.,126,6.3,40.4438,-79.94635,273.2583,-1,-1,10,65,1511130274,0.169632,-0.1185455,-0.9237823,11.34822,8.89032,-39.98941,306.339,315.6708,10,-0.1992644,-0.3083754,0.3905635,3.069084,-0.02625634,0.1094473,-0.4356967,-0.3372471,0.4251347,0.2266425,-0.1072018,0.1283633,128.237.254.209,0.0.0.0,5,3
,,,,,,,,,,,,,,,,,,,,,,,,,,,,,,,,,,,
24:43.,127,6.35,40.4438,-79.94635,273.2583,-1,-1,10,65,1511130274,-0.03987122,0.1053772,-0.8875885,10.96422,9.06424,-40.29324,306.6469,315.9787,10,0.1150411,-0.08762599,0.3188909,3.090029,-0.04204715,0.1049916,0.153291,-0.1250385,0.3454291,0.05896943,0.1840224,0.05864742,128.237.254.209,0.0.0.0,5,3
,,,,,,,,,,,,,,,,,,,,,,,,,,,,,,,,,,,
24:43.,128,6.4,40.4438,-79.94635,273.2583,-1,-1,10,65,1511130274,-0.048172,-0.07951355,-0.7654114,10.19618,9.13382,-40.69836,307.0342,316.366,10,-0.1149711,-0.08926596,0.297017,3.100978,-0.04564324,0.1089343,0.08187289,-0.06333409,0.3241924,-0.01454906,0.110077,0.1770124,128.237.254.209,0.0.0.0,5,3
,,,,,,,,,,,,,,,,,,,,,,,,,,,,,,,,,,,
24:43.,129,6.45,40.4438,-79.94635,273.2583,-1,-1,10,65,1511130274,-0.006881714,-0.1248474,-0.8047638,9.881989,9.09906,-40.79965,306.4315,315.7633,10,-0.2841681,0.04903652,0.2591583,3.120733,-0.05128125,0.1007252,-0.2141623,0.02600241,0.283399,0.03989057,-0.05104113,0.2382677,128.237.254.209,0.0.0.0,5,3
,,,,,,,,,,,,,,,,,,,,,,,,,,,,,,,,,,,
24:43.,130,6.5,40.4438,-79.94635,273.2583,-1,-1,10,65,1511130274,-0.000839233,-0.1046906,-0.9536133,10.05652,9.759949,-40.42828,306.2863,315.6181,10,-0.2974043,-0.07300603,0.2656716,3.132222,-0.05025475,0.08885675,-0.271025,0.02895104,0.2903061,0.02572816,-0.01999426,0.1023718,128.237.254.209,0.0.0.0,5,3
,,,,,,,,,,,,,,,,,,,,,,,,,,,,,,,,,,,
24:43.,131,6.55,40.4438,-79.94635,273.2583,-1,-1,10,65,1511130274,0.0269165,-0.02053833,-1.093079,10.6151,10.4556,-40.49582,305.7712,315.103,10,-0.176342,-0.08756127,0.1468017,-3.13794,-0.05536756,0.07619563,-0.1559585,-0.1077067,0.1876595,0.09183032,0.04609263,-0.03545055,128.237.254.209,0.0.0.0,5,3
,,,,,,,,,,,,,,,,,,,,,,,,,,,,,,,,,,,
24:44.,132,6.6,40.4438,-79.94635,273.2583,-1,-1,10,65,1511130274,0.07225037,-0.03434753,-1.238983,10.26599,11.15128,-40.69839,307.9915,317.3233,10,-0.05919222,-0.09345325,0.2236429,-3.131373,-0.05144905,0.06689724,-0.06547274,-0.06332829,0.2036175,0.09142669,0.03884748,-0.1852892,128.237.254.209,0.0.0.0,5,3
,,,,,,,,,,,,,,,,,,,,,,,,,,,,,,,,,,,
24:44.,133,6.65,40.4438,-79.94635,273.2583,-1,-1,10,65,1511130274,-0.08082581,-0.03468323,-1.199875,10.44055,11.11652,-40.79968,307.1979,316.5297,10,0.2991289,0.131733,-6.18E-05,-3.119882,-0.05511032,0.06908412,0.2227711,0.0550167,0.08633073,0.06326707,0.01414331,-0.2217802,128.237.254.209,0.0.0.0,5,3
,,,,,,,,,,,,,,,,,,,,,,,,,,,,,,,,,,,
24:44.,134,6.7,40.4438,-79.94635,273.2583,-1,-1,10,65,1511130274,-0.04470825,-0.1440735,-0.9709473,10.68491,10.73389,-41.77875,306.8899,316.2217,10,0.3398609,-0.1763689,0.26984,-3.112168,-0.05293512,0.07591639,-0.02515051,-0.07824738,0.4480307,-0.07852861,0.03710142,-0.4205825,128.237.254.209,0.0.0.0,5,3
,,,,,,,,,,,,,,,,,,,,,,,,,,,,,,,,,,,
24:44.,135,6.75,40.4438,-79.94635,273.2583,-1,-1,10,65,1511130274,-0.2472229,0.03526306,-1.102982,10.85945,10.35126,-41.94754,306.3799,315.7118,10,0.232009,0.02354634,-0.1401488,-3.097786,-0.05971516,0.09757752,0.5236804,0.01934973,0.03023312,0.03527164,0.270671,-0.03935251,128.237.254.209,0.0.0.0,5,3
,,,,,,,,,,,,,,,,,,,,,,,,,,,,,,,,,,,
24:44.,136,6.8,40.4438,-79.94635,273.2583,-1,-1,10,65,1511130274,-0.241333,-0.2161407,-1.019913,10.96419,10.24695,-42.0488,307.1658,316.4976,10,-0.645555,-0.03222505,-0.1570844,-3.108188,-0.05708431,0.0952863,-0.445064,0.03144339,-0.3162421,-0.2469317,-0.00434513,-0.07170954,128.237.254.209,0.0.0.0,5,3
,,,,,,,,,,,,,,,,,,,,,,,,,,,,,,,,,,,
24:44.,137,6.85,40.4438,-79.94635,273.2583,-1,-1,10,65,1511130274,-0.03305054,0.05900574,-1.173004,10.51035,10.6991,-41.6774,306.1039,315.4357,10,-0.1791762,-0.04355067,0.1647146,-3.1142,-0.05929602,0.0676127,-0.3186827,-0.08311412,0.1140151,-0.02308849,-0.05576034,-0.1403909,128.237.254.209,0.0.0.0,5,3
,,,,,,,,,,,,,,,,,,,,,,,,,,,,,,,,,,,
24:44.,138,6.9,40.4438,-79.94635,273.2583,-1,-1,10,65,1511130274,-0.0131073,0.1427917,-0.9401093,10.30087,10.62952,-41.87991,305.7085,315.0403,10,0.2709607,0.1869835,0.07203478,-3.101283,-0.05597033,0.07687325,0.3434888,0.1700238,0.1384798,0.07324722,0.2513276,-0.01682844,128.237.254.209,0.0.0.0,5,3
,,,,,,,,,,,,,,,,,,,,,,,,,,,,,,,,,,,
24:44.,139,6.95,40.4438,-79.94635,273.2583,-1,-1,10,65,1511130274,-0.08287048,-0.09220886,-0.7208862,10.26596,10.10779,-41.71115,306.1499,315.4817,10,0.2305989,0.180059,0.1938872,-3.098407,-0.04786354,0.08935817,0.2652053,0.1829034,0.06545827,-0.02606084,0.07047099,0.2055934,128.237.254.209,0.0.0.0,5,3
,,,,,,,,,,,,,,,,,,,,,,,,,,,,,,,,,,,
24:44.,140,7,40.4438,-79.94635,273.2583,-1,-1,10,65,1511130274,0.005432129,-0.1772156,-0.7080383,10.58014,9.725128,-41.87991,305.383,314.7148,10,0.1085166,0.2617914,0.2592766,-3.091998,-0.04224166,0.09794614,0.2554466,0.2026134,0.2622946,-0.03293973,-0.0153238,0.2882952,128.237.254.209,0.0.0.0,5,3
,,,,,,,,,,,,,,,,,,,,,,,,,,,,,,,,,,,
24:44.,141,7.05,40.4438,-79.94635,273.2583,-1,-1,10,65,1511130274,-0.05621338,-0.1776428,-0.8170624,11.45291,9.342468,-41.77863,304.6034,313.9352,10,-0.2875293,0.09170648,-0.03471244,-3.077945,-0.0274887,0.1037743,-0.07018887,0.1858845,0.1045833,-0.04532498,-0.1037483,0.2434053,128.237.254.209,0.0.0.0,5,3
,,,,,,,,,,,,,,,,,,,,,,,,,,,,,,,,,,,
24:44.,142,7.1,40.4438,-79.94635,273.2583,-1,-1,10,65,1511130274,-0.08081055,-0.2014923,-1.020706,11.83693,9.446838,-41.94745,304.8282,314.16,10,-0.1998327,0.1251558,0.01398586,-3.077068,-0.02245448,0.08949293,-0.2765508,0.08996645,0.07239438,-0.04794976,-0.1110964,0.02225161,128.237.254.209,0.0.0.0,5,3
,,,,,,,,,,,,,,,,,,,,,,,,,,,,,,,,,,,
24:44.,143,7.15,40.4438,-79.94635,273.2583,-1,-1,10,65,1511130274,-0.104248,-0.1214905,-1.27713,12.39549,9.446838,-41.67737,303.5725,312.9043,10,0.0279845,0.1525152,0.1517451,-3.07706,-0.01441439,0.08806983,0.07400943,0.2505582,0.05800042,-0.02276661,-0.08352225,-0.1885494,128.237.254.209,0.0.0.0,5,3
,,,,,,,,,,,,,,,,,,,,,,,,,,,,,,,,,,,
24:44.,144,7.2,40.4438,-79.94635,273.2583,-1,-1,10,65,1511130274,0.01116943,-0.1205597,-1.235291,13.19846,9.620728,-41.44104,303.4578,312.7896,10,0.3118546,0.2134217,-0.1199935,-3.07284,-0.006983547,0.0926788,0.1945617,0.20668,-0.08249342,-0.02663108,-0.1227095,-0.1719337,128.237.254.209,0.0.0.0,5,3
,,,,,,,,,,,,,,,,,,,,,,,,,,,,,,,,,,,
24:44.,145,7.25,40.4438,-79.94635,273.2583,-1,-1,10,65,1511130274,0.2143097,-0.3020782,-0.7762451,13.30318,9.585968,-41.40729,303.9252,313.257,10,-0.06474891,-0.1447577,0.1078277,-3.068505,0.00114303,0.09483647,-0.2387883,0.06651457,0.3059546,0.06209453,-0.1318223,-0.5881124,128.237.254.209,0.0.0.0,5,3
,,,,,,,,,,,,,,,,,,,,,,,,,,,,,,,,,,,
24:44.,146,7.3,40.4438,-79.94635,273.2583,-1,-1,10,65,1511130274,0.1460724,0.4071045,-1.139206,13.68719,9.203339,-41.64362,303.1711,312.5029,10,0.6720205,0.0808344,0.1062631,-3.061803,-0.00620473,0.1128076,0.7240689,0.05912624,0.09647777,0.1383216,0.3271071,-0.05190739,128.237.254.209,0.0.0.0,5,3
,,,,,,,,,,,,,,,,,,,,,,,,,,,,,,,,,,,
24:44.,147,7.35,40.4438,-79.94635,273.2583,-1,-1,10,65,1511130274,0.06980896,-0.08886719,-0.9589539,13.19846,8.298981,-42.45386,304.2273,313.5591,10,-0.06954899,0.04584951,0.08881642,-3.056564,-0.003625142,0.1365707,0.2980526,0.06900867,0.1145009,0.06473335,0.2579727,-0.3672737,128.237.254.209,0.0.0.0,5,3
,,,,,,,,,,,,,,,,,,,,,,,,,,,,,,,,,,,
24:44.,148,7.4,40.4438,-79.94635,273.2583,-1,-1,10,65,1511130274,0.152771,-0.2024231,-1.008957,13.47772,7.603302,-42.45386,303.7119,313.0437,10,-0.4980449,-0.2299887,0.4005599,-3.047342,-0.005261744,0.1302055,-0.3955351,-0.151994,0.3314046,0.05427419,-0.02490151,0.02316824,128.237.254.209,0.0.0.0,5,3
,,,,,,,,,,,,,,,,,,,,,,,,,,,,,,,,,,,
24:44.,149,7.45,40.4438,-79.94635,273.2583,-1,-1,10,65,1511130274,0.03384399,0.02613831,-1.054932,13.19844,7.881561,-42.45386,303.0717,312.4035,10,-0.03476624,-0.256089,0.3646986,-3.028146,-0.02014587,0.1119265,-0.2952484,-0.3385187,0.4536728,0.1716908,-0.02497999,-0.0788008,128.237.254.209,0.0.0.0,5,3
,,,,,,,,,,,,,,,,,,,,,,,,,,,,,,,,,,,
24:44.,150,7.5,40.4438,-79.94635,273.2583,-1,-1,10,65,1511130274,-0.08517456,0.04307556,-0.8476562,12.84932,7.603271,-42.31882,301.7143,311.0461,10,0.3097312,-0.1101497,0.2319046,-3.008824,-0.03365705,0.1162433,0.3270248,-0.1070983,0.2725621,-0.01148301,0.229034,-0.01211769,128.237.254.209,0.0.0.0,5,3
,,,,,,,,,,,,,,,,,,,,,,,,,,,,,,,,,,,
24:44.,151,7.55,40.4438,-79.94635,273.2583,-1,-1,10,65,1511130274,-0.01760864,-0.1469727,-0.6529236,12.95406,6.733673,-43.02783,299.0993,308.4312,10,0.09544237,-0.206093,-0.04081641,-2.999971,-0.04105443,0.1288487,0.2035852,-0.1854703,0.1259706,-0.03841415,0.0944196,0.2223965,128.237.254.209,0.0.0.0,5,3
,,,,,,,,,,,,,,,,,,,,,,,,,,,,,,,,,,,
24:45.,152,7.6,40.4438,-79.94635,273.2583,-1,-1,10,65,1511130274,-0.01322937,-0.1954346,-0.7324524,12.91913,6.420624,-43.26419,298.494,307.8258,10,-0.06881129,-0.106862,0.08225573,-2.999367,-0.05083524,0.1348128,0.01479352,-0.1301322,0.0677573,0.01382275,-0.02028884,0.2738261,128.237.254.209,0.0.0.0,5,3
,,,,,,,,,,,,,,,,,,,,,,,,,,,,,,,,,,,
24:45.,153,7.65,40.4438,-79.94635,273.2583,-1,-1,10,65,1511130274,-0.04690552,-0.1736908,-0.869339,13.30313,6.316254,-43.16287,297.4081,306.7399,10,-0.1546242,0.02705079,0.07511339,-2.996032,-0.0525974,0.1311816,-0.09498256,0.01865752,0.07491015,0.03312426,-0.06559024,0.1994944,128.237.254.209,0.0.0.0,5,3
,,,,,,,,,,,,,,,,,,,,,,,,,,,,,,,,,,,
24:45.,154,7.7,40.4438,-79.94635,273.2583,-1,-1,10,65,1511130274,-0.01045227,-0.1684875,-1.054703,13.09366,6.385864,-42.75775,297.2152,306.5471,10,-0.2488522,-0.04057645,-0.04960324,-2.993066,-0.05199519,0.1232215,-0.1983142,-0.009768556,0.02247292,0.04489435,-0.03417928,0.02003781,128.237.254.209,0.0.0.0,5,3
,,,,,,,,,,,,,,,,,,,,,,,,,,,,,,,,,,,
24:45.,155,7.75,40.4438,-79.94635,273.2583,-1,-1,10,65,1511130274,-0.02528381,-0.1446838,-1.214325,12.91911,6.838043,-42.72394,298.2689,307.6007,10,-0.1828284,-0.1450355,-0.1442203,-2.995323,-0.06176856,0.109664,-0.1555918,-0.1311549,-0.08670546,0.01306441,-0.07733852,-0.2327257,128.237.254.209,0.0.0.0,5,3
,,,,,,,,,,,,,,,,,,,,,,,,,,,,,,,,,,,
24:45.,156,7.8,40.4438,-79.94635,273.2583,-1,-1,10,65,1511130274,-0.09927368,-0.02233887,-1.357452,12.67474,7.290222,-42.9603,298.4054,307.7372,10,-0.02713868,0.1931407,-0.2898512,-3.003969,-0.06241088,0.1095161,0.2137438,0.1647907,-0.3022051,0.02117946,0.04643109,-0.2738258,128.237.254.209,0.0.0.0,5,3
,,,,,,,,,,,,,,,,,,,,,,,,,,,,,,,,,,,
24:45.,157,7.85,40.4438,-79.94635,273.2583,-1,-1,10,65,1511130274,-0.02928162,-0.09637451,-0.9259644,12.63985,6.698883,-43.26419,298.2543,307.5862,10,0.4041616,-0.1990249,0.02136974,-3.01372,-0.05760773,0.1139518,0.2066823,-0.1660741,0.03036208,-0.06108367,-0.0584901,-0.1194617,128.237.254.209,0.0.0.0,5,3
,,,,,,,,,,,,,,,,,,,,,,,,,,,,,,,,,,,
24:45.,158,7.9,40.4438,-79.94635,273.2583,-1,-1,10,65,1511130274,-0.2990112,0.08058167,-1.123672,12.57001,6.072784,-43.93936,297.4976,306.8294,10,0.4273646,-0.05772055,-0.4794388,-3.014555,-0.0629264,0.1314348,0.6377594,-0.129675,-0.2283265,0.05570492,0.155837,0.01837392,128.237.254.209,0.0.0.0,5,3
,,,,,,,,,,,,,,,,,,,,,,,,,,,,,,,,,,,
24:45.,159,7.95,40.4438,-79.94635,273.2583,-1,-1,10,65,1511130274,-0.2857513,-0.3336945,-0.9511414,12.70967,6.629333,-45.01968,299.4304,308.7622,10,-0.9337751,-0.1031959,-0.7179648,-3.061572,-0.05610492,0.1199496,-0.8168139,-0.03641988,-0.8160605,-0.3327704,-0.2263767,0.144054,128.237.254.209,0.0.0.0,5,3
,,,,,,,,,,,,,,,,,,,,,,,,,,,,,,,,,,,
24:45.,160,8,40.4438,-79.94635,273.2583,-1,-1,10,65,1511130274,-0.08370972,0.03382874,-1.166733,13.05878,8.646759,-45.42484,300.8418,310.1736,10,-0.1682263,0.03681501,-0.2500892,-3.08804,-0.05884167,0.08810539,-0.5350237,-0.125468,-0.3656785,-0.09103281,-0.1283324,-0.03283967,128.237.254.209,0.0.0.0,5,3
,,,,,,,,,,,,,,,,,,,,,,,,,,,,,,,,,,,
24:45.,161,8.05,40.4438,-79.94635,273.2583,-1,-1,10,65,1511130274,-0.07055664,0.187088,-0.9548645,12.43039,9.759827,-45.28983,301.6591,310.991,10,0.2817353,0.1940515,-0.3472751,-3.102386,-0.05371571,0.08790216,0.2783392,0.1898782,-0.2886499,-0.03117317,0.3177084,-0.08047774,128.237.254.209,0.0.0.0,5,3
,,,,,,,,,,,,,,,,,,,,,,,,,,,,,,,,,,,
24:45.,162,8.1,40.4438,-79.94635,273.2583,-1,-1,10,65,1511130274,-0.03860474,-0.07759094,-0.686676,12.5002,9.203247,-45.22229,301.2443,310.5761,10,0.1282514,0.07567106,-0.3947662,-3.117689,-0.04480793,0.1023685,0.276162,0.1263306,-0.395932,-0.01664456,0.1882952,0.1704022,128.237.254.209,0.0.0.0,5,3
,,,,,,,,,,,,,,,,,,,,,,,,,,,,,,,,,,,
24:45.,163,8.150001,40.4438,-79.94635,273.2583,-1,-1,10,65,1511130274,-0.02165222,-0.1945953,-0.6792603,11.73216,8.925049,-45.28979,303.3104,312.6422,10,-0.1298198,0.0632863,-0.4131293,-3.13873,-0.03845542,0.1107508,-0.0059989,0.05796751,-0.4057246,0.05043269,-0.06954443,0.3569997,128.237.254.209,0.0.0.0,5,3
,,,,,,,,,,,,,,,,,,,,,,,,,,,,,,,,,,,
24:45.,164,8.2,40.4438,-79.94635,273.2583,-1,-1,10,65,1511130274,-0.000915527,-0.2086029,-0.8289795,11.76709,9.377197,-45.25601,304.3985,313.7303,10,-0.2675585,0.0840704,-0.3620586,3.127462,-0.03335553,0.1051484,-0.2224243,0.07944828,-0.3526974,0.02133959,-0.1171674,0.2911498,128.237.254.209,0.0.0.0,5,3
,,,,,,,,,,,,,,,,,,,,,,,,,,,,,,,,,,,
24:45.,165,8.25,40.4438,-79.94635,273.2583,-1,-1,10,65,1511130274,-0.068573,-0.1508026,-1.154999,12.46529,9.794586,-44.58081,304.0609,313.3928,10,-0.1483197,0.1917841,-0.2518783,3.109004,-0.02595527,0.09430476,-0.1559667,0.1448568,-0.2800966,-0.04505529,-0.07201842,-0.001101354,128.237.254.209,0.0.0.0,5,3
,,,,,,,,,,,,,,,,,,,,,,,,,,,,,,,,,,,
24:45.,166,8.3,40.4438,-79.94635,273.2583,-1,-1,10,65,1511130274,-0.06799316,-0.198349,-1.234512,13.51262,10.49023,-45.12097,304.2643,313.5961,10,-0.2170831,0.1447607,-0.2218549,3.099969,-0.01461539,0.09058473,-0.1221256,0.2814208,-0.1753759,-0.06280711,-0.1136864,-0.2317454,128.237.254.209,0.0.0.0,5,3
,,,,,,,,,,,,,,,,,,,,,,,,,,,,,,,,,,,
24:45.,167,8.35,40.4438,-79.94635,273.2583,-1,-1,10,65,1511130274,-0.03791809,-0.1758575,-1.665192,14.28065,10.28156,-45.25601,303.1381,312.4699,10,0.03845205,0.1326742,-0.3580812,3.086462,-0.004864202,0.08509306,0.166547,0.1627497,-0.3375178,0.01433755,-0.003098581,-0.3779739,128.237.254.209,0.0.0.0,5,3
,,,,,,,,,,,,,,,,,,,,,,,,,,,,,,,,,,,
24:45.,168,8.400001,40.4438,-79.94635,273.2583,-1,-1,10,65,1511130274,0.2662811,0.2147675,-1.132812,14.45518,10.87286,-45.89752,304.1551,313.4869,10,0.3307803,-0.2570779,-0.139523,3.066979,-0.00793703,0.08321594,0.1736046,-0.2721408,-0.16392,0.2143762,0.2535759,-0.1229987,128.237.254.209,0.0.0.0,5,3
,,,,,,,,,,,,,,,,,,,,,,,,,,,,,,,,,,,
24:45.,169,8.45,40.4438,-79.94635,273.2583,-1,-1,10,65,1511130274,0.05197144,0.01486206,-1.061859,13.79189,10.42065,-45.59363,304.0226,313.3545,10,0.418206,-0.05261714,-0.1363078,3.062352,-0.01505045,0.1067433,0.6760952,-0.07132752,-0.1026858,0.1315261,0.2725105,-0.1987669,128.237.254.209,0.0.0.0,5,3
,,,,,,,,,,,,,,,,,,,,,,,,,,,,,,,,,,,
24:45.,170,8.5,40.4438,-79.94635,273.2583,-1,-1,10,65,1511130274,0.0932312,-0.1372223,-0.9725952,13.26822,9.620605,-45.76245,305.7995,315.1313,10,-0.1233701,-0.1333296,-0.1052558,3.058401,-0.01655315,0.1228539,0.30585,-0.0631796,-0.1338784,0.04070437,0.1018847,0.00465608,128.237.254.209,0.0.0.0,5,3
,,,,,,,,,,,,,,,,,,,,,,,,,,,,,,,,,,,
24:45.,171,8.55,40.4438,-79.94635,273.2583,-1,-1,10,65,1511130274,0.1440887,-0.01008606,-1.052292,12.95403,9.238007,-45.79623,305.3796,314.7114,10,-0.4354652,-0.2989052,0.5208722,3.060087,-0.02653582,0.1031592,-0.6353392,-0.2257068,0.3133506,0.1926819,-0.05174783,0.008692149,128.237.254.209,0.0.0.0,5,3
,,,,,,,,,,,,,,,,,,,,,,,,,,,,,,,,,,,
24:46.,172,8.6,40.4438,-79.94635,273.2583,-1,-1,10,65,1511130274,-0.02561951,0.1598206,-0.9184723,12.53508,9.516296,-46.26889,304.5957,313.9276,10,0.2697495,-0.2049705,0.5148814,3.089502,-0.04433748,0.09083895,0.2135934,-0.2490453,0.5878187,0.1024135,0.3103949,-0.09071878,128.237.254.209,0.0.0.0,5,3
,,,,,,,,,,,,,,,,,,,,,,,,,,,,,,,,,,,
24:46.,173,8.650001,40.4438,-79.94635,273.2583,-1,-1,10,65,1511130274,-0.05322266,-0.05293274,-0.7241669,12.29073,9.829376,-45.89755,304.3673,313.6992,10,0.3570596,-0.1692106,0.2203603,3.109623,-0.05329094,0.106864,0.4599412,-0.121832,0.334899,-0.000306562,0.111864,0.2162116,128.237.254.209,0.0.0.0,5,3
,,,,,,,,,,,,,,,,,,,,,,,,,,,,,,,,,,,
24:46.,174,8.7,40.4438,-79.94635,273.2583,-1,-1,10,65,1511130274,-0.0199585,-0.1878815,-0.7236023,12.95403,8.611908,-46.40393,302.374,311.7058,10,0.1574554,-0.1699187,0.1442778,3.122132,-0.06377373,0.1257941,0.2425365,-0.179841,0.1526245,0.01259827,-0.03031443,0.3087919,128.237.254.209,0.0.0.0,5,3
,,,,,,,,,,,,,,,,,,,,,,,,,,,,,,,,,,,
